stationid,stationname,lineids,linenames,lat,lng
1,文泽路,{1},{地铁1号线},30.3124488486573,120.345256537775
2,向阳路,{1},{地铁1号线},30.2625268552102,120.438102883596
3,龙翔桥,{1},{地铁1号线},30.2571087402251,120.159339902417
4,七堡,{1},{地铁1号线},30.3025068084336,120.236672134768
5,高沙路,{1},{地铁1号线},30.3116824628644,120.330536956927
6,下沙江滨,{1},{地铁1号线},30.2898604549171,120.377142905147
7,下沙西,{1},{地铁1号线},30.3123634977035,120.307957565027
8,闸弄口,{1},{地铁1号线},30.2868609973852,120.18781100098
9,金沙湖,{1},{地铁1号线},30.311775288696,120.321009851419
10,西湖文化广场,{1},{地铁1号线},30.2826662190356,120.161154584426
11,西兴,{1},{地铁1号线},30.1895615686408,120.216257763083
12,九和路,{1},{地铁1号线},30.3082508340488,120.248374057557
13,九堡,{1},{地铁1号线},30.3101295488646,120.261853829421
14,云水,{1},{地铁1号线},30.3048321673057,120.377265506051
15,滨和路,{1},{地铁1号线},30.2020887334303,120.213093522203
16,湘湖,{1},{地铁1号线},30.1700890989558,120.229815010117
17,港城大道,{1},{地铁1号线},30.2728499507977,120.420931062588
18,武林广场,{1},{地铁1号线},30.2747291664916,120.159682283547
19,杭州大会展中心,{1},{地铁1号线},30.2732249572636,120.40754213275
20,南阳,{1},{地铁1号线},30.2723504938032,120.431739889145
21,定安路,{1},{地铁1号线},30.2483425256648,120.163076565497
22,婺江路,{1},{地铁1号线},30.2393858850854,120.186259064476
23,凤起路,"{1,2}","{地铁1号线,地铁2号线}",30.2651928004809,120.158645020716
24,彭埠,"{1,4}","{地铁1号线,地铁4号线}",30.2964759990711,120.2189376376
25,火车东站,"{1,4}","{地铁1号线,地铁4号线}",30.2934748399485,120.20844067472
26,近江,"{1,4}","{地铁1号线,地铁4号线}",30.2334278755033,120.193060620984
27,滨康路,"{1,5}","{地铁1号线,地铁5号线}",30.1856604850648,120.226813000185
28,城站,"{1,5}","{地铁1号线,地铁5号线}",30.2469372484423,120.176271704229
29,打铁关,"{1,5}","{地铁1号线,地铁5号线}",30.2876233414102,120.172183600718
30,江陵路,"{1,6}","{地铁1号线,地铁6号线}",30.2116490136179,120.212049651282
31,萧山国际机场,"{1,7}","{地铁1号线,地铁7号线}",30.2384021648703,120.430049759067
32,文海南路,"{1,8}","{地铁1号线,地铁8号线}",30.3131729447525,120.371629099335
33,客运中心,"{1,9}","{地铁1号线,地铁9号线}",30.3134708034085,120.274140159667
34,古翠路,{2},{地铁2号线},30.2844534754126,120.113012386451
35,学院路,{2},{地铁2号线},30.2854428433092,120.124743298458
36,杭发厂,{2},{地铁2号线},30.1733419318378,120.262580999584
37,杜甫村,{2},{地铁2号线},30.3612377058099,120.051853144094
38,朝阳,{2},{地铁2号线},30.1246227016013,120.263681393086
39,三墩,{2},{地铁2号线},30.3224077276166,120.088184232517
40,下宁桥,{2},{地铁2号线},30.2855892452779,120.135302082374
41,曹家桥,{2},{地铁2号线},30.1370699615539,120.263412374249
42,飞虹路,{2},{地铁2号线},30.2334430499459,120.258808868709
43,中河北路,{2},{地铁2号线},30.266991143913,120.167438787095
44,文新,{2},{地铁2号线},30.2917341911028,120.093337110223
45,丰潭路,{2},{地铁2号线},30.2841589081337,120.104533357198
46,振宁路,{2},{地铁2号线},30.2200858211872,120.264826237598
47,虾龙圩,{2},{地铁2号线},30.3117188902973,120.09151719521
48,良渚,{2},{地铁2号线},30.3613620365425,120.038022578723
49,建设一路,{2},{地铁2号线},30.1964878629298,120.262070521873
50,盈丰路,{2},{地铁2号线},30.239460100251,120.247810487733
51,白洋,{2},{地铁2号线},30.3535975994238,120.068119779514
52,庆菱路,{2},{地铁2号线},30.2601323230415,120.188508190377
53,潘水,{2},{地铁2号线},30.1506028911037,120.263170553027
54,人民路,{2},{地铁2号线},30.16184267193,120.262927040821
55,墩祥街,{2},{地铁2号线},30.3339497810917,120.082779618399
56,庆春广场,{2},{地铁2号线},30.2600087367755,120.200098943413
57,沈塘桥,{2},{地铁2号线},30.2814868250629,120.145408081998
58,武林门,{2},{地铁2号线},30.2722843652355,120.149816339391
59,金家渡,"{2,4}","{地铁2号线,地铁4号线}",30.3411967600298,120.078761630887
60,钱江路,"{2,4,9}","{地铁2号线,地铁4号线,地铁9号线}",30.2579633811447,120.208641554013
61,人民广场,"{2,5}","{地铁2号线,地铁5号线}",30.1828824939753,120.262013289811
62,三坝,"{2,5}","{地铁2号线,地铁5号线}",30.3026711767715,120.093432235719
63,建国北路,"{2,5}","{地铁2号线,地铁5号线}",30.2669440169125,120.176320862977
64,钱江世纪城,"{2,6}","{地铁2号线,地铁6号线}",30.242637580436,120.238895096423
65,建设三路,"{2,7}","{地铁2号线,地铁7号线}",30.2069251642479,120.263203888508
66,潮王路,{3},{地铁3号线},30.2925114447655,120.154113631792
67,丁桥,{3},{地铁3号线},30.3581982345025,120.230119318018
68,华丰路,{3},{地铁3号线},30.3425750381971,120.199472683071
69,华鹤街,{3},{地铁3号线},30.372815422849,120.233410439041
70,星桥,{3},{地铁3号线},30.3918844311301,120.258911310563
71,黄鹤山,{3},{地铁3号线},30.3831354221778,120.241741628007
72,大关,{3},{地铁3号线},30.3099819888562,120.144217952117
73,汽轮广场,{3},{地铁3号线},30.3370858836753,120.183755382229
74,同协路,{3},{地铁3号线},30.3468178679777,120.207407847116
75,香积寺,{3},{地铁3号线},30.3024423430538,120.14398457673
76,桃花湖公园,{3},{地铁3号线},30.353819500194,120.216896378525
77,新天地街,"{3,4}","{地铁3号线,地铁4号线}",30.3236794222499,120.174836243152
78,善贤,"{3,5}","{地铁3号线,地铁5号线}",30.3195638255025,120.155677252798
79,储运路,{4},{地铁4号线},30.3560693594857,120.123455050037
80,城星路,{4},{地铁4号线},30.2421195448706,120.202408430403
81,池华街,{4},{地铁4号线},30.3301868387441,120.063999844258
82,江锦路,{4},{地铁4号线},30.2521068950818,120.210883893216
83,甬江路,{4},{地铁4号线},30.2258021112252,120.184954019098
84,新塘,{4},{地铁4号线},30.2786368076866,120.202729023116
85,杨家墩,{4},{地铁4号线},30.1701905573854,120.144162651426
86,景芳,{4},{地铁4号线},30.2675062894299,120.203223095509
87,明石路,{4},{地铁4号线},30.3059918932853,120.222759879012
88,新风,{4},{地铁4号线},30.2896908020812,120.203112170873
89,吴家角港,{4},{地铁4号线},30.3533307511305,120.164739880279
90,复兴路,{4},{地铁4号线},30.2126057359214,120.158914852559
91,黎明,{4},{地铁4号线},30.3176846091738,120.219094509697
92,联庄,{4},{地铁4号线},30.1885927962242,120.147262849659
93,好运街,{4},{地铁4号线},30.3519628006476,120.094871711614
94,笕桥老街,{4},{地铁4号线},30.3254469163993,120.214734442446
95,皋亭坝,{4},{地铁4号线},30.3325039669626,120.167438128741
96,平安桥,{4},{地铁4号线},30.3593446970903,120.138885461076
97,浦沿,{4},{地铁4号线},30.1610044757907,120.149182839056
98,华中南路,{4},{地铁4号线},30.3263089746267,120.19555057678
99,水澄桥,{4},{地铁4号线},30.2063311688637,120.147328508452
100,桃源街,{4},{地铁4号线},30.3440044031829,120.173821579547
101,南星桥,"{4,5}","{地铁4号线,地铁5号线}",30.2194907513088,120.173058496891
102,中医药大学,"{4,6}","{地铁4号线,地铁6号线}",30.1782396504685,120.141595512868
103,市民中心,"{4,7}","{地铁4号线,地铁7号线}",30.2462659971125,120.206800900343
104,杭行路,"{4,10}","{地铁4号线,地铁10号线}",30.3560991615179,120.110061867188
105,葛巷,{5},{地铁5号线},30.2726544431575,119.994112380241
106,大运河,{5},{地铁5号线},30.3216320272012,120.127055235273
107,姑娘桥,{5},{地铁5号线},30.1781835912628,120.326040493992
108,双桥,{5},{地铁5号线},30.1754278053077,120.304416510547
109,宝善桥,{5},{地铁5号线},30.2742316274301,120.175217018994
110,博奥路,{5},{地铁5号线},30.1848242171384,120.239569041487
111,万安桥,{5},{地铁5号线},30.2566580991317,120.17608659386
112,拱宸桥东,{5},{地铁5号线},30.319341088771,120.143218706887
113,创景路,{5},{地铁5号线},30.2809128103882,119.993743558677
114,杭师大仓前,{5},{地铁5号线},30.291033568421,120.012396914093
115,杭氧,{5},{地铁5号线},30.2964194765065,120.174310583733
116,永福,{5},{地铁5号线},30.2938545654295,120.022104009852
117,江晖路,{5},{地铁5号线},30.1840146870516,120.207865918449
118,浙大紫金港,{5},{地铁5号线},30.2964248900647,120.072071942641
119,候潮门,{5},{地铁5号线},30.2290013285493,120.16840057074
120,五常,{5},{地铁5号线},30.2987256128653,120.0406023886
121,火车南站,{5},{地铁5号线},30.175082158765,120.29290932008
122,聚才路,{5},{地铁5号线},30.1852857882993,120.193584788804
123,育才北路,{5},{地铁5号线},30.1831633751939,120.273322063019
124,良睦路,{5},{地铁5号线},30.2880559990206,120.002498637102
125,萍水街,{5},{地铁5号线},30.3050933317248,120.107758149545
126,蒋村,{5},{地铁5号线},30.2970403650007,120.063278981437
127,西文街,{5},{地铁5号线},30.3183974244382,120.165658585975
128,通惠中路,{5},{地铁5号线},30.1829024401378,120.280610992471
129,金星,{5},{地铁5号线},30.2678166619537,119.961777189668
130,金鸡路,{5},{地铁5号线},30.1841957781089,120.248914606326
131,东新园,{5},{地铁5号线},30.3106715078029,120.17132043792
132,长河,"{5,6}","{地铁5号线,地铁6号线}",30.1993754823505,120.189626039676
133,江城路,"{5,7}","{地铁5号线,地铁7号线}",30.2410677291559,120.173186433243
134,和睦,"{5,10}","{地铁5号线,地铁10号线}",30.3120828123433,120.114917418688
135,绿汀路,"{5,11}","{地铁5号线,地铁16号线}",30.2626369446823,119.987375327742
136,公望街,{6},{地铁6号线},30.0681324954361,119.928843578839
137,星民,{6},{地铁6号线},30.2155220440441,120.219647690963
138,桂花西路,{6},{地铁6号线},30.0498789063014,119.929871357055
139,枸桔弄,{6},{地铁6号线},30.3039683042903,120.201915962426
140,枫桦西路,{6},{地铁6号线},30.1574770878124,120.094027286206
141,阳陂湖,{6},{地铁6号线},30.0845275228562,119.92760857259
142,江汉路,{6},{地铁6号线},30.2052807630486,120.200326327631
143,昙花庵路,{6},{地铁6号线},30.2787294683601,120.218353321444
144,银湖,{6},{地铁6号线},30.141977183475,119.983954267933
145,元宝塘,{6},{地铁6号线},30.2861989434321,120.21617492098
146,中村,{6},{地铁6号线},30.1494322400947,120.034380827243
147,野生动物园东,{6},{地铁6号线},30.1493014347991,119.996842378618
148,建业路,{6},{地铁6号线},30.192807527582,120.174028803626
149,诚业路,{6},{地铁6号线},30.1891197455885,120.165268653059
150,西浦路,{6},{地铁6号线},30.1707785369572,120.132171905102
151,霞鸣街,{6},{地铁6号线},30.1452241496747,120.068263672463
152,之浦路,{6},{地铁6号线},30.1605234578384,120.103810722645
153,虎啸杏,{6},{地铁6号线},30.1335883359877,119.966678970987
154,高桥,{6},{地铁6号线},30.0976018138613,119.926856725739
155,伟业路,{6},{地铁6号线},30.1848076546469,120.154583272601
156,音乐学院,{6},{地铁6号线},30.1500427848547,120.052800334896
157,火车东站(东广场),{6},{地铁6号线},30.2961442487784,120.211678945629
158,博览中心,{6},{地铁6号线},30.2352576305907,120.232319292753
159,科海路,{6},{地铁6号线},30.1318685364485,120.082225588181
160,双浦,{6},{地铁6号线},30.1182607655019,120.078907280359
161,富阳客运中心,{6},{地铁6号线},30.1138706558588,119.93207291501
162,受降,{6},{地铁6号线},30.1248225068821,119.955971468956
163,美院象山,{6},{地铁6号线},30.1534682633537,120.076091460582
164,奥体中心,"{6,7}","{地铁6号线,地铁7号线}",30.2260451163355,120.227639619406
165,三堡,"{6,9}","{地铁6号线,地铁9号线}",30.2689670839084,120.223877957693
166,盈中,{7},{地铁7号线},30.1999324508871,120.358102430782
167,永盛路,{7},{地铁7号线},30.2389816676198,120.467767033122
168,坎山,{7},{地铁7号线},30.2000597810948,120.3909092912
169,江东二路,{7},{地铁7号线},30.3260418545655,120.49041115956
170,启成路,{7},{地铁7号线},30.3141035786741,120.490027800917
171,莫邪塘,{7},{地铁7号线},30.2454464859921,120.182276644812
172,合欢路,{7},{地铁7号线},30.2003692813212,120.338428841929
173,义蓬,{7},{地铁7号线},30.2759822626469,120.482639519634
174,吴山广场,{7},{地铁7号线},30.2421351567346,120.157927995194
175,塘新线,{7},{地铁7号线},30.2866447404345,120.485742140195
176,新镇路,{7},{地铁7号线},30.2607450875556,120.479843837201
177,明星路,{7},{地铁7号线},30.2072070702833,120.24470871809
178,新街,{7},{地铁7号线},30.2017970335267,120.326043173561
179,新港,{7},{地铁7号线},30.2211744757706,120.403822570259
180,新汉路,{7},{地铁7号线},30.2054461398596,120.302015844815
181,兴议,{7},{地铁7号线},30.2145057269185,120.234045615878
182,新兴路,{7},{地铁7号线},30.2072788552243,120.29016536638
183,青六中路,"{7,8}","{地铁7号线,地铁8号线}",30.3005718978693,120.487534798351
184,观音塘,"{7,9}","{地铁7号线,地铁9号线}",30.2495374784276,120.197068147975
185,青西三路,{8},{地铁8号线},30.3006834812531,120.473439178492
186,仓北村,{8},{地铁8号线},30.2962400395168,120.503330599824
187,桥头堡,{8},{地铁8号线},30.305353340715,120.427853339906
188,工商大学云滨,{8},{地铁8号线},30.3131658120758,120.388681614916
189,河庄路,{8},{地铁8号线},30.3010609685878,120.452641264897
190,新湾路,{8},{地铁8号线},30.2971967307295,120.538006400767
191,冯娄村,{8},{地铁8号线},30.2966644883564,120.517063694475
192,荷禹路,{9},{地铁9号线},30.4367275275312,120.280131341859
193,乔司南,{9},{地铁9号线},30.329979965912,120.286390755927
194,乔司,{9},{地铁9号线},30.3491883547395,120.280787642251
195,南苑,{9},{地铁9号线},30.3975114736501,120.298045262425
196,临平,{9},{地铁9号线},30.4079642339269,120.299352056495
197,邱山大街,{9},{地铁9号线},30.4226467610699,120.290910587223
198,龙安,{9},{地铁9号线},30.4575506591841,120.269132051383
199,御道,{9},{地铁9号线},30.2755413420215,120.23147535764
200,江河汇,{9},{地铁9号线},30.2636783494209,120.216989517298
201,新业路,{9},{地铁9号线},30.2514059141108,120.204176113251
202,九睦路,{9},{地铁9号线},30.3079201433354,120.266685392706
203,红普南路,{9},{地铁9号线},30.2953544198384,120.258717543997
204,五洲路,{9},{地铁9号线},30.4467951539339,120.27462471825
205,翁梅,{9},{地铁9号线},30.3673435067107,120.290592498287
206,临平南高铁站,"{9,12}","{地铁9号线,杭海城际铁路}",30.3846265818286,120.292556998685
207,渡驾桥,{10},{地铁10号线},30.3272119144084,120.110770244396
208,花园岗,{10},{地铁10号线},30.3180497149253,120.108057365241
209,逸盛路,{10},{地铁10号线},30.3808465150578,120.108801964882
210,祥园路,{10},{地铁10号线},30.3388682967053,120.111617912601
211,北大桥,{10},{地铁10号线},30.3055864877699,120.125168067836
212,金德路,{10},{地铁10号线},30.3668349679845,120.109553723804
213,翠柏路,{10},{地铁10号线},30.2925721989426,120.124212318239
214,青山湖,{11},{地铁16号线},30.2582489135577,119.75074150204
215,南峰,{11},{地铁16号线},30.2525243679379,119.873501362038
216,青山湖科技城,{11},{地铁16号线},30.259650296092,119.820422516441
217,临安广场,{11},{地铁16号线},30.2299348364386,119.701539129884
218,南湖,{11},{地铁16号线},30.2493793875916,119.895460294694
219,八百里,{11},{地铁16号线},30.2635601658591,119.771754046714
220,九州街,{11},{地铁16号线},30.2046863508953,119.691761853456
221,禹航路,{11},{地铁16号线},30.2512594900855,119.950868334047
222,中泰,{11},{地铁16号线},30.2457660198645,119.925275853612
223,凤新路,{11},{地铁16号线},30.2628159801281,119.964206739491
224,农林大学,{11},{地铁16号线},30.2469521158154,119.73388354176
225,周王庙,{12},{杭海城际铁路},30.4519326219211,120.501534326021
226,桐九公路,{12},{杭海城际铁路},30.4860506732914,120.583139559973
227,长安东,{12},{杭海城际铁路},30.4456281648301,120.455314775634
228,斜桥,{12},{杭海城际铁路},30.4902216304671,120.612879456347
229,皮革城,{12},{杭海城际铁路},30.5085758283398,120.659941867441
230,海昌路,{12},{杭海城际铁路},30.5137310432623,120.687695233967
231,海宁高铁西站,{12},{杭海城际铁路},30.4417505242471,120.386206527556
232,浙大国际校区,{12},{杭海城际铁路},30.5150093329252,120.712069766403
233,许村,{12},{杭海城际铁路},30.4128669743711,120.35094430896
234,长安(东方学院),{12},{杭海城际铁路},30.437260822536,120.433670379724
235,盐官,{12},{杭海城际铁路},30.4654862402695,120.536234612057
