stationid,stationname,lineids,linenames,lat,lng
1,烈士陵园,{1},{地铁1号线},23.1292691541015,113.280423735842
2,坑口,{1},{地铁1号线},23.081594228407,113.227142581233
3,农讲所,{1},{地铁1号线},23.1293021235904,113.270187594464
4,长寿路,{1},{地铁1号线},23.1209209808192,113.23675025146
5,花地湾,{1},{地铁1号线},23.0897913199286,113.228770867709
6,芳村,{1},{地铁1号线},23.1011514112792,113.230637402654
7,体育中心,{1},{地铁1号线},23.1373684170863,113.322975796132
8,西门口,{1},{地铁1号线},23.1278860869308,113.250617040355
9,公园前,"{1,2}","{地铁1号线,地铁2号线}",23.1279309172911,113.258955801656
10,广州东站,"{1,3}","{地铁1号线,地铁3号线北延段}",23.1528468671408,113.31973462185
11,体育西路,"{1,3,4}","{地铁1号线,地铁3号线北延段,地铁3号线}",23.1337111303511,113.316221792144
12,杨箕,"{1,6}","{地铁1号线,地铁5号线}",23.1303094033525,113.302721635789
13,东山口,"{1,7}","{地铁1号线,地铁6号线}",23.1269238913633,113.290075184683
14,黄沙,"{1,7}","{地铁1号线,地铁6号线}",23.1125795886874,113.235107749107
15,陈家祠,"{1,9}","{地铁1号线,地铁8号线}",23.1283426900392,113.241527999918
16,西塱,"{1,17}","{地铁1号线,广佛线}",23.0687410819092,113.227071784965
17,萧岗,{2},{地铁2号线},23.2009745411684,113.275012391165
18,白云文化广场,{2},{地铁2号线},23.1925083721527,113.270223609447
19,市二宫,{2},{地铁2号线},23.108766987848,113.264775052465
20,三元里,{2},{地铁2号线},23.1618957255768,113.251903439695
21,黄边,{2},{地铁2号线},23.2244429137191,113.281916451339
22,会江,{2},{地铁2号线},23.0155044410111,113.281192103908
23,东晓南,{2},{地铁2号线},23.0738509016823,113.289019678135
24,江泰路,{2},{地铁2号线},23.0847347279837,113.275215596925
25,越秀公园,{2},{地铁2号线},23.1423769729044,113.256153606176
26,南浦,{2},{地铁2号线},23.0364451104808,113.288187140277
27,江夏,{2},{地铁2号线},23.2138651483259,113.277849214179
28,飞翔公园,{2},{地铁2号线},23.1715351645343,113.258265586848
29,洛溪,{2},{地铁2号线},23.0457978503616,113.29333548184
30,白云公园,{2},{地铁2号线},23.1843268605034,113.265540552362
31,江南西,{2},{地铁2号线},23.0999380739194,113.268567747368
32,纪念堂,{2},{地铁2号线},23.1348623582998,113.258078922889
33,嘉禾望岗,"{2,3,13}","{地铁2号线,地铁3号线北延段,地铁14号线}",23.2399556234039,113.283780324226
34,广州火车站,"{2,6}","{地铁2号线,地铁5号线}",23.1503457418427,113.250253146976
35,海珠广场,"{2,7}","{地铁2号线,地铁6号线}",23.1176392885856,113.260535385958
36,石壁,"{2,8}","{地铁2号线,地铁7号线}",22.9966631547223,113.272620894546
37,广州南站,"{2,8}","{地铁2号线,地铁7号线}",22.9916100058617,113.265154547938
38,昌岗,"{2,9}","{地铁2号线,地铁8号线}",23.093298980111,113.271525149007
39,南洲,"{2,17}","{地铁2号线,广佛线}",23.0669245695289,113.292385115534
40,龙归,{3},{地铁3号线北延段},23.2913972603293,113.295515954855
41,白云大道北,{3},{地铁3号线北延段},23.2248108077986,113.293227017369
42,京溪南方医院,{3},{地铁3号线北延段},23.1878036657755,113.320570568993
43,人和,{3},{地铁3号线北延段},23.3379020611479,113.290618531439
44,永泰,{3},{地铁3号线北延段},23.2228368259697,113.301010629794
45,梅花园,{3},{地铁3号线北延段},23.1780292569137,113.314977327825
46,同和,{3},{地铁3号线北延段},23.1995399687181,113.320923690621
47,机场南(1号航站楼),{3},{地铁3号线北延段},23.388775448613,113.297530778344
48,机场北(2号航站楼),{3},{地铁3号线北延段},23.398551285633,113.299953202983
49,燕塘,"{3,7}","{地铁3号线北延段,地铁6号线}",23.1626847982273,113.321712425731
50,高增,"{3,10}","{地铁3号线北延段,地铁9号线}",23.3576574929659,113.290121048493
51,林和西,"{3,16}","{地铁3号线北延段,APM线}",23.1439740061769,113.318412054585
52,石牌桥,{4},{地铁3号线},23.1358696323581,113.326218662752
53,大塘,{4},{地铁3号线},23.080489159707,113.316239698014
54,岗顶,{4},{地铁3号线},23.1374455272386,113.334146733391
55,市桥,{4},{地铁3号线},22.9520718168357,113.356301765322
56,五山,{4},{地铁3号线},23.1551159437225,113.346424924856
57,大石,{4},{地铁3号线},23.0203940893725,113.316351555303
58,厦滘,{4},{地铁3号线},23.0404947543781,113.315293765756
59,华师,{4},{地铁3号线},23.1431481578451,113.339841684986
60,珠江新城,"{4,6}","{地铁3号线,地铁5号线}",23.1220183098044,113.315758931717
61,天河客运站,"{4,7}","{地铁3号线,地铁6号线}",23.1733359174342,113.338337104048
62,汉溪长隆,"{4,8}","{地铁3号线,地铁7号线}",22.9962428244611,113.324858781221
63,客村,"{4,9}","{地铁3号线,地铁8号线}",23.0989090855031,113.315163015276
64,番禺广场,"{4,14}","{地铁3号线,地铁18号线}",22.9372275645243,113.379092537658
65,广州塔,"{4,16}","{地铁3号线,APM线}",23.1090670393346,113.317968556958
66,沥滘,"{4,17}","{地铁3号线,广佛线}",23.0574809639017,113.313644103078
67,大学城北,{5},{地铁4号线},23.0607812205903,113.37996663291
68,官洲,{5},{地铁4号线},23.0695029860902,113.371232102431
69,黄阁汽车城,{5},{地铁4号线},22.8386685188047,113.504474472034
70,新造,{5},{地铁4号线},23.0308672613925,113.410102400587
71,大涌,{5},{地铁4号线},22.7623215766969,113.550433173653
72,石碁,{5},{地铁4号线},22.9599291762635,113.459805403879
73,塘坑,{5},{地铁4号线},22.7560297432505,113.567968897243
74,黄阁,{5},{地铁4号线},22.8274933772467,113.51352044154
75,海傍,{5},{地铁4号线},22.942127163169,113.46996617753
76,广隆,{5},{地铁4号线},22.7752140972883,113.535558282203
77,南沙客运港,{5},{地铁4号线},22.7700222279929,113.606024399754
78,南横,{5},{地铁4号线},22.7508142585279,113.589334425776
79,低涌,{5},{地铁4号线},22.9221968926624,113.479443058343
80,金洲,{5},{地铁4号线},22.7951088544738,113.533670513483
81,蕉门,{5},{地铁4号线},22.8034324682857,113.522375127747
82,东涌,{5},{地铁4号线},22.8883357441622,113.473620434068
83,车陂,{5},{地铁4号线},23.1269176111127,113.389940983694
84,飞沙角,{5},{地铁4号线},22.7849120695196,113.535495000862
85,庆盛,{5},{地铁4号线},22.8694649575732,113.485197641819
86,车陂南,"{5,6}","{地铁4号线,地铁5号线}",23.1181650885413,113.384665944422
87,大学城南,"{5,8}","{地铁4号线,地铁7号线}",23.0459262130571,113.395041150354
88,万胜围,"{5,9}","{地铁4号线,地铁8号线}",23.1002433407743,113.379228675931
89,黄村,"{5,15}","{地铁4号线,地铁21号线}",23.1357465286137,113.401590948085
90,五羊邨,{6},{地铁5号线},23.1224647735306,113.308896021171
91,淘金,{6},{地铁5号线},23.139098313614,113.281399615968
92,潭村,{6},{地铁5号线},23.1200267390042,113.340472289942
93,滘口,{6},{地铁5号线},23.116552690261,113.203191315102
94,中山八,{6},{地铁5号线},23.1287961887939,113.227471921979
95,动物园,{6},{地铁5号线},23.1372129971497,113.301937081565
96,三溪,{6},{地铁5号线},23.1065987059,113.410378164695
97,大沙东,{6},{地铁5号线},23.1088612725191,113.452834195717
98,大沙地,{6},{地铁5号线},23.1059682451074,113.440670645972
99,西村,{6},{地铁5号线},23.1447370763783,113.236391357774
100,东圃,{6},{地铁5号线},23.1119120770919,113.396125057835
101,小北,{6},{地铁5号线},23.1420978595829,113.271177191422
102,西场,{6},{地铁5号线},23.139994280998,113.232714439718
103,文冲,{6},{地铁5号线},23.1063496278371,113.463509850084
104,科韵路,{6},{地铁5号线},23.1215327591175,113.371707490538
105,猎德,{6},{地铁5号线},23.1212384422537,113.326886040714
106,坦尾,"{6,7}","{地铁5号线,地铁6号线}",23.128114905442,113.212858807294
107,区庄,"{6,7}","{地铁5号线,地铁6号线}",23.1368339176229,113.291592115593
108,鱼珠,"{6,11}","{地铁5号线,地铁13号线}",23.1026557942909,113.426881539857
109,员村,"{6,15}","{地铁5号线,地铁21号线}",23.118196957062,113.358482062575
110,黄陂,{7},{地铁6号线},23.1908596917298,113.4277320802
111,长湴,{7},{地铁6号线},23.1810255426595,113.343861187762
112,河沙,{7},{地铁6号线},23.1378169082352,113.212174669045
113,金峰,{7},{地铁6号线},23.1837457015266,113.445734052765
114,天平架,{7},{地铁6号线},23.1621872527724,113.315443728452
115,萝岗,{7},{地铁6号线},23.177969382564,113.475925465874
116,团一大广场,{7},{地铁6号线},23.1205874855343,113.272812479754
117,沙贝,{7},{地铁6号线},23.155102175912,113.20589728787
118,柯木塱,{7},{地铁6号线},23.1957701725121,113.390631800576
119,香雪,{7},{地铁6号线},23.1751417220562,113.495657721128
120,植物园,{7},{地铁6号线},23.1926556152226,113.360197695647
121,横沙,{7},{地铁6号线},23.1607930259462,113.20137498979
122,高塘石,{7},{地铁6号线},23.1933658186944,113.404807526379
123,北京路,{7},{地铁6号线},23.1213174497975,113.264724150638
124,一德路,{7},{地铁6号线},23.1156525722835,113.251917223864
125,黄花岗,{7},{地铁6号线},23.1436974042243,113.294335922182
126,龙洞,{7},{地铁6号线},23.1933895055894,113.372126678731
127,东湖,{7},{地铁6号线},23.1179197184077,113.283299386504
128,浔峰岗,{7},{地铁6号线},23.1668944953176,113.196350213216
129,沙河顶,{7},{地铁6号线},23.149701007166,113.301574417957
130,如意坊,{7},{地铁6号线},23.1175142613748,113.225978010878
131,暹岗,{7},{地铁6号线},23.1748603274257,113.454773060382
132,文化公园,"{7,9}","{地铁6号线,地铁8号线}",23.1113042496295,113.244037597359
133,苏元,"{7,15}","{地铁6号线,地铁21号线}",23.173059079878,113.462955137706
134,美的,{8},{地铁7号线},22.936298848944,113.221545076579
135,陈村,{8},{地铁7号线},22.9712609853161,113.231343106274
136,大洲,{8},{地铁7号线},22.9865179964294,113.252328508141
137,员岗,{8},{地铁7号线},23.0185633309705,113.360580630112
138,板桥,{8},{地铁7号线},23.0193004119426,113.382458987034
139,陈村北,{8},{地铁7号线},22.9788506642244,113.239874071484
140,谢村,{8},{地铁7号线},22.9932431592721,113.290956755071
141,钟村,{8},{地铁7号线},22.9890684048671,113.311586857032
142,南涌,{8},{地铁7号线},22.9419905414031,113.232518727727
143,北滘公园,{8},{地铁7号线},22.9325029794472,113.206862422778
144,锦龙,{8},{地铁7号线},22.9563467000133,113.235916421488
145,美的大道,{8},{地铁7号线},22.9474682524756,113.202395969486
146,南村万博,"{8,14}","{地铁7号线,地铁18号线}",23.006887159824,113.340785381917
147,凤凰新村,{9},{地铁8号线},23.097127418637,113.250846331228
148,上步,{9},{地铁8号线},23.1736937384203,113.230461179612
149,中大,{9},{地铁8号线},23.0947073294237,113.287746330312
150,亭岗,{9},{地铁8号线},23.225397250014,113.214532982832
151,华林寺,{9},{地铁8号线},23.120862232925,113.241918768267
152,同德,{9},{地铁8号线},23.1664003638238,113.229367229973
153,同福西,{9},{地铁8号线},23.1043796907505,113.247078885721
154,宝岗大道,{9},{地铁8号线},23.0886793831927,113.264351654409
155,小坪,{9},{地铁8号线},23.2033739026441,113.237682497228
156,新港东,{9},{地铁8号线},23.101239838296,113.351671555742
157,晓港,{9},{地铁8号线},23.0956889041237,113.276561816289
158,滘心,{9},{地铁8号线},23.2397305497198,113.211596263249
159,琶洲,{9},{地铁8号线},23.1010987317918,113.361159079534
160,石井,{9},{地铁8号线},23.2139182421186,113.226112293963
161,石潭,{9},{地铁8号线},23.1911194580156,113.23594632729
162,聚龙,{9},{地铁8号线},23.1842333442916,113.23355744178
163,赤岗,{9},{地铁8号线},23.0990239144735,113.329549007648
164,鹅掌坦,{9},{地铁8号线},23.1591590632079,113.230089304408
165,鹭江,{9},{地铁8号线},23.0979755095943,113.302869753391
166,磨碟沙,"{9,14}","{地铁8号线,地铁18号线}",23.1020230193413,113.337166026979
167,沙园,"{9,17}","{地铁8号线,广佛线}",23.0913279739681,113.255227848089
168,莲塘,{10},{地铁9号线},23.3916672247348,113.239906927649
169,清塘,{10},{地铁9号线},23.374772824063,113.257507970033
170,清布,{10},{地铁9号线},23.380766347193,113.245531041581
171,马鞍山公园,{10},{地铁9号线},23.4021064463544,113.232461032202
172,花城路,{10},{地铁9号线},23.3822124277042,113.20744149535
173,花果山公园,{10},{地铁9号线},23.3900489691632,113.212990728591
174,花都广场,{10},{地铁9号线},23.4038320349943,113.217417585503
175,花都汽车城,{10},{地铁9号线},23.3824102937909,113.174774312738
176,飞鹅岭,{10},{地铁9号线},23.3806228849662,113.149540879491
177,广州北站,{10},{地铁9号线},23.3788361537842,113.196645873572
178,南海神庙,{11},{地铁13号线},23.0864742034269,113.492158524973
179,裕丰围,{11},{地铁13号线},23.0970462795596,113.449847973761
180,夏园,{11},{地铁13号线},23.0858017911191,113.512900830273
181,沙村,{11},{地铁13号线},23.1134194250001,113.565219228571
182,新塘,{11},{地铁13号线},23.1349920033259,113.600224442632
183,新沙,{11},{地铁13号线},23.1396343241576,113.644230853449
184,南岗,{11},{地铁13号线},23.098318337345,113.536503159417
185,双岗,{11},{地铁13号线},23.096948297391,113.469117148503
186,白江,{11},{地铁13号线},23.1263109241583,113.590545780249
187,官湖,{11},{地铁13号线},23.1401713151629,113.631568291398
188,红卫,{12},{地铁14号线支线},23.4019369381635,113.48180295812
189,知识城,{12},{地铁14号线支线},23.3519816149888,113.519899551225
190,镇龙北,{12},{地铁14号线支线},23.2924778160524,113.571986159857
191,何棠下,{12},{地铁14号线支线},23.3340056483643,113.538601390895
192,新南,{12},{地铁14号线支线},23.3798285534844,113.489845789779
193,旺村,{12},{地铁14号线支线},23.326226710808,113.546480667317
194,汤村,{12},{地铁14号线支线},23.3102209754831,113.559434586156
195,枫下,{12},{地铁14号线支线},23.3655565318255,113.503035789302
196,新和,"{12,13}","{地铁14号线支线,地铁14号线}",23.4159009976967,113.461590431748
197,镇龙,"{12,15}","{地铁14号线支线,地铁21号线}",23.2873206922749,113.587988450218
198,白云东平,{13},{地铁14号线},23.2534955975347,113.312421327236
199,夏良,{13},{地铁14号线},23.2803454431281,113.318212506817
200,神岗,{13},{地铁14号线},23.4778161678223,113.51233781151
201,钟落潭,{13},{地铁14号线},23.3783966979498,113.395432534665
202,从化客运站,{13},{地铁14号线},23.5342577660465,113.589197683928
203,赤草,{13},{地铁14号线},23.5040738719804,113.555193867481
204,太平,{13},{地铁14号线},23.4549830129273,113.486652561138
205,马沥,{13},{地铁14号线},23.3963465569187,113.444901195522
206,竹料,{13},{地铁14号线},23.3511234500987,113.362892790055
207,东风,{13},{地铁14号线},23.5693258486487,113.595501348964
208,太和,{13},{地铁14号线},23.3014358845312,113.341598105129
209,龙潭,{14},{地铁18号线},23.0836127046472,113.335756876425
210,冼村,{14},{地铁18号线},23.1284678002672,113.322952545681
211,沙溪,{14},{地铁18号线},23.0380204889571,113.332838618616
212,横沥,{14},{地铁18号线},22.7555845418516,113.506136208327
213,万顷沙,{14},{地铁18号线},22.7011861122448,113.552313558605
214,中新,{15},{地铁21号线},23.288210235695,113.608022716322
215,水西,{15},{地铁21号线},23.1894764013805,113.473826829778
216,棠东,{15},{地铁21号线},23.1332998060934,113.384475712214
217,神舟路,{15},{地铁21号线},23.1678985930052,113.426244782402
218,科学城,{15},{地铁21号线},23.1686606057343,113.444393740412
219,朱村,{15},{地铁21号线},23.2750270594578,113.69632226404
220,山田,{15},{地铁21号线},23.2790407166183,113.739435024315
221,天河智慧城,{15},{地铁21号线},23.1655279409097,113.39782492786
222,金坑,{15},{地铁21号线},23.2521042806616,113.521682889356
223,天河公园,{15},{地铁21号线},23.127407435821,113.357201561619
224,钟岗,{15},{地铁21号线},23.2819240019199,113.787004386788
225,大观南路,{15},{地铁21号线},23.1469109587242,113.401266297547
226,镇龙西,{15},{地铁21号线},23.2808918442299,113.568593443741
227,长平,{15},{地铁21号线},23.2129408165472,113.484516738624
228,增城广场,{15},{地铁21号线},23.2807405167299,113.809249763835
229,坑贝,{15},{地铁21号线},23.2815820495368,113.637851140869
230,凤岗,{15},{地铁21号线},23.2787267120973,113.665331489198
231,花城大道,{16},{APM线},23.1217892535819,113.319337296439
232,妇儿中心,{16},{APM线},23.1251094050874,113.319263021127
233,大剧院,{16},{APM线},23.1181787828005,113.319291452337
234,体育中心南,{16},{APM线},23.1366505034098,113.318242248506
235,黄埔大道,{16},{APM线},23.1295135925489,113.318965400801
236,海心沙,{16},{APM线},23.114121851274,113.318930243061
237,天河南,{16},{APM线},23.1339213992451,113.318744400793
238,世纪莲,{17},{广佛线},22.9677608193934,113.108968532011
239,千灯湖,{17},{广佛线},23.0576025092781,113.150091566694
240,魁奇路,{17},{广佛线},22.9963179134023,113.102816330432
241,沙涌,{17},{广佛线},23.0857836871224,113.241529703426
242,龙溪,{17},{广佛线},23.0685868423309,113.187275522539
243,燕岗,{17},{广佛线},23.077918179746,113.266620228771
244,普君北路,{17},{广佛线},23.0301922331187,113.117294248211
245,朝安,{17},{广佛线},23.0301819403005,113.127731832046
246,祖庙,{17},{广佛线},23.0296129742833,113.106722290619
247,礌岗,{17},{广佛线},23.0455822513087,113.14994466988
248,桂城,{17},{广佛线},23.0341300462108,113.135888964856
249,澜石,{17},{广佛线},22.9868535224663,113.101710551641
250,东平,{17},{广佛线},22.9678844259328,113.123688558465
251,金融高新区,{17},{广佛线},23.0690395738716,113.152247795588
252,鹤洞,{17},{广佛线},23.0752306700477,113.234790291899
253,石溪,{17},{广佛线},23.0705610621871,113.280727863208
254,同济路,{17},{广佛线},23.0215804220041,113.102900589284
255,季华园,{17},{广佛线},23.0097008046556,113.103056447389
256,新城东,{17},{广佛线},22.9613391106114,113.134466738874
257,南桂路,{17},{广佛线},23.0365741505482,113.148625802472
258,菊树,{17},{广佛线},23.0689232541696,113.207318007879
