stationid,stationname,lineids,linenames,lat,lng
1,丹水池,{1},{地铁1号线},30.6460868646822,114.324619506797
2,堤角,{1},{地铁1号线},30.6681893037645,114.33280775484
3,头道街,{1},{地铁1号线},30.6201033741933,114.308522202063
4,太平洋,{1},{地铁1号线},30.5766000388276,114.235281007431
5,东吴大道,{1},{地铁1号线},30.6272935020902,114.122955567801
6,三店,{1},{地铁1号线},30.6514717332412,114.11521302561
7,二七路,{1},{地铁1号线},30.6274585013466,114.31337129971
8,五环大道,{1},{地铁1号线},30.6199806425975,114.133157743437
9,舵落口,{1},{地铁1号线},30.6122806901461,114.164064474581
10,竹叶海,{1},{地铁1号线},30.6173651388906,114.158284706121
11,~口路,{1},{地铁1号线},30.5740364583047,114.245026792805
12,滠口新城,{1},{地铁1号线},30.6867901015269,114.336887024432
13,额头湾,{1},{地铁1号线},30.6209098929643,114.150339311624
14,滕子岗,{1},{地铁1号线},30.6769811993052,114.336035882738
15,利济北路,{1},{地铁1号线},30.5799415057305,114.264819018062
16,汉西一路,{1},{地铁1号线},30.5879259815239,114.213370132914
17,汉口北,{1},{地铁1号线},30.7141791472236,114.32419464516
18,新荣,{1},{地铁1号线},30.6582196634947,114.329092828125
19,友谊路,{1},{地铁1号线},30.5834721131989,114.273129979585
20,古田一路,{1},{地铁1号线},30.6068168823101,114.177610618768
21,古田三路,{1},{地铁1号线},30.5958485195736,114.199197970788
22,古田二路,{1},{地铁1号线},30.5999262290634,114.191135685478
23,古田四路,{1},{地铁1号线},30.5916185675621,114.206317107298
24,徐州新村,{1},{地铁1号线},30.6335952596469,114.31749707185
25,径河,{1},{地铁1号线},30.6615259835076,114.115277916018
26,崇仁路,{1},{地铁1号线},30.5764319634331,114.256652181648
27,循礼门,"{1,2}","{地铁1号线,地铁2号线}",30.5878993896397,114.281106880171
28,宗关,"{1,3}","{地铁1号线,地铁3号线}",30.5827352199883,114.220549090194
29,码头潭公园,"{1,6}","{地铁1号线,地铁6号线}",30.6346049626242,114.118614615915
30,大智路,"{1,6}","{地铁1号线,地铁6号线}",30.5951211084755,114.28899051438
31,三阳路,"{1,7}","{地铁1号线,地铁7号线}",30.6015408505195,114.296026701117
32,黄浦路,"{1,8}","{地铁1号线,地铁8号线}",30.6108098352769,114.30193929841
33,光谷广场,{2},{地铁2号线},30.5083348549568,114.393541369682
34,盘龙城,{2},{地铁2号线},30.7025113669623,114.254242060961
35,珞雄路,{2},{地铁2号线},30.5090593938107,114.398862783397
36,常青城,{2},{地铁2号线},30.6612274043003,114.249729675241
37,黄龙山路,{2},{地铁2号线},30.4795875999924,114.424840199294
38,佛祖岭,{2},{地铁2号线},30.4411121967375,114.43433024045
39,佳园路,{2},{地铁2号线},30.5023769041485,114.4252985632
40,广埠屯,{2},{地铁2号线},30.5249168528471,114.358487248156
41,秀湖,{2},{地铁2号线},30.4500900156158,114.415488395579
42,光谷大道,{2},{地铁2号线},30.5089387463376,114.418264864479
43,宝通寺,{2},{地铁2号线},30.5327052640459,114.335598467312
44,长港路,{2},{地铁2号线},30.6293467642269,114.240782214658
45,金银潭,{2},{地铁2号线},30.6529239018263,114.23746019674
46,金融港北,{2},{地铁2号线},30.464394548302,114.415368560456
47,中山公园,{2},{地铁2号线},30.5844674060132,114.26727289434
48,华中科技大学,{2},{地铁2号线},30.5097335648547,114.408722161758
49,虎泉,{2},{地铁2号线},30.5144313481515,114.365112621409
50,藏龙东街,{2},{地铁2号线},30.4394824741596,114.424140621337
51,杨家湾,{2},{地铁2号线},30.5074671947161,114.377251543963
52,小龟山,{2},{地铁2号线},30.5535207578237,114.321203851006
53,航空总部,{2},{地铁2号线},30.7346583489826,114.221915661393
54,青年路,{2},{地铁2号线},30.5878459055015,114.259367448833
55,宋家岗,{2},{地铁2号线},30.7254891646781,114.23191364098
56,巨龙大道,{2},{地铁2号线},30.7137483666251,114.248845058034
57,汉口火车站,{2},{地铁2号线},30.6180458580982,114.249604381155
58,天河机场,{2},{地铁2号线},30.7727485683777,114.211647124214
59,范湖,"{2,3}","{地铁2号线,地铁3号线}",30.6094418894104,114.255261151882
60,宏图大道,"{2,3,8}","{地铁2号线,地铁3号线,地铁8号线}",30.6720564225996,114.27345050095
61,中南路,"{2,4}","{地铁2号线,地铁4号线}",30.5400694203605,114.327551040063
62,洪山广场,"{2,4}","{地铁2号线,地铁4号线}",30.5476341987218,114.331079594399
63,积玉桥,"{2,5}","{地铁2号线,地铁5号线}",30.5637143171521,114.303384412335
64,江汉路,"{2,6}","{地铁2号线,地铁6号线}",30.582108287003,114.286270730121
65,常青花园,"{2,6}","{地铁2号线,地铁6号线}",30.6430706424015,114.237593753637
66,王家墩东,"{2,7}","{地铁2号线,地铁7号线}",30.5964583572849,114.257038711115
67,螃蟹岬,"{2,7}","{地铁2号线,地铁7号线}",30.5555032789808,114.311946926864
68,街道口,"{2,8}","{地铁2号线,地铁8号线}",30.5283418265629,114.347819982958
69,武汉东站,"{2,9}","{地铁2号线,地铁11号线}",30.4892183814354,114.427389663852
70,龙阳村,{3},{地铁3号线},30.5555098100779,114.200848586592
71,三角湖,{3},{地铁3号线},30.51913595932,114.174233422556
72,二七小路,{3},{地铁3号线},30.6311363917069,114.302278347966
73,云飞路,{3},{地铁3号线},30.6074730763132,114.246809687024
74,体育中心,{3},{地铁3号线},30.508418906435,114.165511192457
75,兴业路,{3},{地铁3号线},30.6437684345582,114.298795903511
76,双墩,{3},{地铁3号线},30.5890419791398,114.226639716475
77,四新大道,{3},{地铁3号线},30.537332037489,114.189076574951
78,市民之家,{3},{地铁3号线},30.663570052051,114.290962238578
79,惠济二路,{3},{地铁3号线},30.6153527363347,114.28593582334
80,汉阳客运站,{3},{地铁3号线},30.5298028262792,114.183335137045
81,沌阳大道,{3},{地铁3号线},30.4914807267527,114.151524005918
82,罗家庄,{3},{地铁3号线},30.6261944152961,114.29860551222
83,菱角湖,{3},{地铁3号线},30.606478358657,114.270412245423
84,陶家岭,{3},{地铁3号线},30.5480297485808,114.196499273028
85,王家湾,"{3,4}","{地铁3号线,地铁4号线}",30.5635965229736,114.204338584063
86,东风公司,"{3,6}","{地铁3号线,地铁6号线}",30.502065510117,114.161588854233
87,香港路,"{3,6,7}","{地铁3号线,地铁6号线,地铁7号线}",30.6075283659217,114.279145784619
88,武汉商务区,"{3,7}","{地铁3号线,地铁7号线}",30.5991580384863,114.241327464383
89,赵家条,"{3,8}","{地铁3号线,地铁8号线}",30.6199435833309,114.291711685011
90,后湖大道,"{3,11}","{地铁3号线,地铁21号线}",30.6529532052645,114.299921635192
91,罗家港,{4},{地铁4号线},30.5950800983373,114.366152196881
92,黄金口,{4},{地铁4号线},30.5664681614138,114.13972433327
93,十里铺,{4},{地铁4号线},30.5617685275149,114.213843514017
94,知音,{4},{地铁4号线},30.5591357667976,114.086374967772
95,永安堂,{4},{地铁4号线},30.5688070527841,114.183641112885
96,临嶂大道,{4},{地铁4号线},30.5741510297954,114.022764427568
97,孟家铺,{4},{地铁4号线},30.5673127345658,114.1683424117
98,园林路,{4},{地铁4号线},30.6026116127906,114.372900285561
99,武汉火车站,{4},{地铁4号线},30.609496264224,114.418736171881
100,楚河汉街,{4},{地铁4号线},30.5561637203747,114.335766908171
101,首义路,{4},{地铁4号线},30.5360603812614,114.30367332008
102,梅苑小区,{4},{地铁4号线},30.5333459290648,114.320645525654
103,柏林,{4},{地铁4号线},30.5846895740497,113.98960961788
104,杨春湖,{4},{地铁4号线},30.6074807437345,114.410706517068
105,玉龙路,{4},{地铁4号线},30.5669189235157,114.19594482152
106,拦江路,{4},{地铁4号线},30.5449424975218,114.264498223981
107,青鱼嘴,{4},{地铁4号线},30.5660407341272,114.344206424478
108,东亭,{4},{地铁4号线},30.5725393575115,114.350163274502
109,新农,{4},{地铁4号线},30.5627812049482,114.069173404729
110,铁机路,{4},{地铁4号线},30.5862400646564,114.363629834052
111,新天,{4},{地铁4号线},30.5545505880698,114.12073590585
112,新庙村,{4},{地铁4号线},30.582271113012,114.003736151229
113,集贤,{4},{地铁4号线},30.5523769795423,114.106786779936
114,仁和路,{4},{地铁4号线},30.6074452303715,114.383674435277
115,五里墩,{4},{地铁4号线},30.5562730050829,114.236206646136
116,蔡甸广场,{4},{地铁4号线},30.5754184943672,114.03623879512
117,凤凰路,{4},{地铁4号线},30.5657499702671,114.054605251232
118,汉阳火车站,{4},{地铁4号线},30.5541769950046,114.247259755005
119,工业四路,{4},{地铁4号线},30.6102366155124,114.400346067288
120,七里庙,{4},{地铁4号线},30.5590450261002,114.226299738477
121,复兴路,"{4,5}","{地铁4号线,地铁5号线}",30.5360828955424,114.295861844782
122,钟家村,"{4,6}","{地铁4号线,地铁6号线}",30.5515000442837,114.260676901117
123,武昌火车站,"{4,7}","{地铁4号线,地铁7号线}",30.5340621249458,114.311360168693
124,岳家嘴,"{4,8}","{地铁4号线,地铁8号线}",30.5793211649028,114.356127964058
125,厂前,{5},{地铁5号线},30.6135510003964,114.428686338768
126,杨园铁四院,{5},{地铁5号线},30.6019369330257,114.337557432377
127,三角路,{5},{地铁5号线},30.5838021427846,114.320030033668
128,青宜居,{5},{地铁5号线},30.6448759663081,114.414067112135
129,昙华林武胜门,{5},{地铁5号线},30.5566306696436,114.299883498807
130,工人村,{5},{地铁5号线},30.6340615932003,114.420365257571
131,司门口黄鹤楼,{5},{地铁5号线},30.5491987399406,114.296816885671
132,中医药大学,{5},{地铁5号线},30.4560793891917,114.263390004887
133,彭刘杨,{5},{地铁5号线},30.5439017813649,114.296057736802
134,张家湾,{5},{地铁5号线},30.4979639418282,114.288116081103
135,建设二路,{5},{地铁5号线},30.6272332065062,114.370872945832
136,武汉站东广场,{5},{地铁5号线},30.6091647913565,114.421300295184
137,武钢,{5},{地铁5号线},30.6210765784372,114.43175661329
138,和平公园,{5},{地铁5号线},30.6337116470041,114.381467022151
139,科普公园,{5},{地铁5号线},30.6199281050536,114.359258976452
140,红钢城,{5},{地铁5号线},30.6413520794971,114.395846435044
141,白沙六路,{5},{地铁5号线},30.4711921096173,114.287953762259
142,三层楼,{5},{地铁5号线},30.5718152792176,114.309129035862
143,光霞,{5},{地铁5号线},30.4810928759791,114.287710209436
144,八铺街,{5},{地铁5号线},30.5225846308255,114.295036706604
145,余家头,{5},{地铁5号线},30.6102750031282,114.346561118877
146,烽火村,{5},{地铁5号线},30.5116857386107,114.293140758919
147,徐家棚,"{5,7,8}","{地铁5号线,地铁7号线,地铁8号线}",30.5926635938673,114.328430771403
148,苗栗路,{6},{地铁6号线},30.601410991379,114.284413238451
149,石桥,{6},{地铁6号线},30.6334534861493,114.259603677295
150,海口三路,{6},{地铁6号线},30.6366888746044,114.161938241485
151,马鹦路,{6},{地铁6号线},30.5402705796454,114.261408264025
152,汉正街,{6},{地铁6号线},30.5737852691747,114.269355812656
153,前进村,{6},{地铁6号线},30.5225517958156,114.247843972665
154,二雅路,{6},{地铁6号线},30.6352974977242,114.147391444154
155,新城十一路,{6},{地铁6号线},30.6351203830425,114.103622324017
156,杨汊湖,{6},{地铁6号线},30.6380728046013,114.255747282772
157,江城大道,{6},{地铁6号线},30.4990631498762,114.196733119415
158,金银湖公园,{6},{地铁6号线},30.6392360465241,114.175356988427
159,国博中心北,{6},{地铁6号线},30.5129660002559,114.237283400118
160,金银湖,{6},{地铁6号线},30.6417409559188,114.19957904567
161,武胜路,{6},{地铁6号线},30.5718621250311,114.263390364772
162,车城东路,{6},{地铁6号线},30.4979610778623,114.174532629887
163,建港,{6},{地铁6号线},30.5292453276614,114.254334508303
164,六渡桥,{6},{地铁6号线},30.5773667732042,114.278880282839
165,唐家墩,{6},{地铁6号线},30.620091845202,114.265879714467
166,五环体育中心,{6},{地铁6号线},30.6363598979498,114.131129981188
167,轻工大学,{6},{地铁6号线},30.6420740478927,114.229025646515
168,琴台,{6},{地铁6号线},30.5599694246531,114.260717522244
169,三眼桥,{6},{地铁6号线},30.6128300074261,114.270269423274
170,园博园北,"{6,7}","{地铁6号线,地铁7号线}",30.6394847315253,114.217640907735
171,老关村,"{6,10}","{地铁6号线,地铁16号线}",30.4954286197172,114.220514537363
172,国博中心南,"{6,10}","{地铁6号线,地铁16号线}",30.5080450219701,114.230739897759
173,湖北大学,{7},{地铁7号线},30.5801677501642,114.324015427916
174,园博园(汉口里),{7},{地铁7号线},30.621019057989,114.22045696688
175,常码头,{7},{地铁7号线},30.6071909203382,114.229195675333
176,建安街,{7},{地铁7号线},30.506467804312,114.308325948076
177,取水楼,{7},{地铁7号线},30.6001377713321,114.269274982495
178,新河街,{7},{地铁7号线},30.5651437961261,114.311740389279
179,新路村,{7},{地铁7号线},30.4440773528571,114.312940316291
180,板桥,{7},{地铁7号线},30.4767853738567,114.30800717795
181,北华街,{7},{地铁7号线},30.3606469252464,114.3180906978
182,江夏客厅,{7},{地铁7号线},30.3917792114163,114.316212601474
183,小东门,{7},{地铁7号线},30.5470096440043,114.312951353002
184,湖工大,{7},{地铁7号线},30.486098763627,114.307891887971
185,瑞安街,{7},{地铁7号线},30.5171601915517,114.308701154988
186,纸坊大街,{7},{地铁7号线},30.3474502614359,114.319095511107
187,谭鑫培公园,{7},{地铁7号线},30.3728245141715,114.316475357778
188,青龙山地铁小镇,{7},{地铁7号线},30.3213034950008,114.328732739605
189,大花岭,{7},{地铁7号线},30.4148569953053,114.314692219803
190,野芷湖,"{7,8}","{地铁7号线,地铁8号线}",30.4638433103949,114.314049923503
191,小洪山,{8},{地铁8号线},30.5379643756845,114.346818378976
192,军运村,{8},{地铁8号线},30.4299500457405,114.289807827048
193,汪家墩,{8},{地铁8号线},30.5878348022098,114.344062154841
194,黄家湖地铁小镇,{8},{地铁8号线},30.4393242605075,114.292765812211
195,水果湖,{8},{地铁8号线},30.5540210830354,114.340727675819
196,中南医院,{8},{地铁8号线},30.5591321341681,114.351511691281
197,塔子湖,{8},{地铁8号线},30.6551148448795,114.275019751225
198,马湖,{8},{地铁8号线},30.4740130934165,114.319530425973
199,马房山,{8},{地铁8号线},30.5175681803888,114.34492038724
200,徐东,{8},{地铁8号线},30.590693884476,114.340198221582
201,金潭路,{8},{地铁8号线},30.6793466927837,114.278573626257
202,梨园,{8},{地铁8号线},30.5770127310481,114.365087313466
203,省农科院,{8},{地铁8号线},30.4840900121089,114.320436384248
204,中一路,{8},{地铁8号线},30.6424178262599,114.275647413699
205,文昌路,{8},{地铁8号线},30.4944320877927,114.324561567801
206,文治街,{8},{地铁8号线},30.5024943570426,114.338807421377
207,省博湖北日报,{8},{地铁8号线},30.567307292798,114.359842482756
208,竹叶山,{8},{地铁8号线},30.6278152326527,114.281596089849
209,洪山路,{8},{地铁8号线},30.5478853333607,114.338204925105
210,未来三路,{9},{地铁11号线},30.4889721939459,114.600761863621
211,豹,{9},{地铁11号线},30.4911637432107,114.517258008572
212,左岭,{9},{地铁11号线},30.490768247814,114.615686973688
213,未来一路,{9},{地铁11号线},30.4871489745945,114.580301820086
214,光谷生物园,{9},{地铁11号线},30.4900163032297,114.47588135327
215,光谷六路,{9},{地铁11号线},30.4876219419205,114.507810438815
216,光谷七路,{9},{地铁11号线},30.4906227130846,114.528825466149
217,湖口,{9},{地铁11号线},30.4902849043575,114.443514883459
218,光谷四路,{9},{地铁11号线},30.4916651615351,114.486971250997
219,长岭山,{9},{地铁11号线},30.490089362108,114.557980047096
220,光谷同济医院,{9},{地铁11号线},30.4876269894625,114.461082958731
221,葛店南站,{9},{地铁11号线},30.4920081140608,114.65575140875
222,光谷五路,{9},{地铁11号线},30.4876990472268,114.497655868976
223,沌口,{10},{地铁16号线},30.4644638188793,114.199762358791
224,湾湖,{10},{地铁16号线},30.3258183897267,114.041377278241
225,协子河,{10},{地铁16号线},30.3346697444932,114.054129151108
226,桂子湖,{10},{地铁16号线},30.3608557148344,114.087710922863
227,枫林,{10},{地铁16号线},30.3918570291479,114.139195754073
228,南太子湖,{10},{地铁16号线},30.4793329162878,114.214790825115
229,周家河,{10},{地铁16号线},30.3070780917361,114.029461422108
230,马影河,{10},{地铁16号线},30.3440666581292,114.063109154977
231,小军山,{10},{地铁16号线},30.407073045432,114.152796239928
232,大军山,{10},{地铁16号线},30.3777834041309,114.127164107324
233,青龙,{11},{地铁21号线},30.7078575762139,114.384819376399
234,朱家河,{11},{地铁21号线},30.6826484473582,114.359628525549
235,高车,{11},{地铁21号线},30.7158435841041,114.40353079587
236,金台,{11},{地铁21号线},30.716293813162,114.614276897456
237,谌家矶,{11},{地铁21号线},30.6860928975453,114.367472058237
238,沙口,{11},{地铁21号线},30.7115796981887,114.472195842264
239,武湖,{11},{地铁21号线},30.7093001821787,114.424416067131
240,武生院,{11},{地铁21号线},30.7109775037175,114.520388311934
241,军民村,{11},{地铁21号线},30.712308018896,114.509926098503
242,百步亭花园路,{11},{地铁21号线},30.6567372498835,114.309990054709
243,幸福湾,{11},{地铁21号线},30.6743579944714,114.338606820382
244,施岗,{11},{地铁21号线},30.7088312006649,114.595917831304
245,新荣客运站,{11},{地铁21号线},30.6598782007319,114.327355953796
246,阳逻开发区,{11},{地铁21号线},30.7040577567083,114.5628319397
247,阳逻,{11},{地铁21号线},30.7059212382082,114.547987058384
