stationid,stationname,lineids,linenames,lat,lng
1,石井坡,{1},{轨道交通1号线},29.59196095,106.440286
2,石油路,{1},{轨道交通1号线},29.5409298,106.5046548
3,鹅岭,{1},{轨道交通1号线},29.55074963,106.5301508
4,七星岗,{1},{轨道交通1号线},29.55779945,106.5597382
5,磁器口,{1},{轨道交通1号线},29.57935872,106.4424715
6,双碑,{1},{轨道交通1号线},29.60798045,106.4404426
7,赖家桥,{1},{轨道交通1号线},29.61283611,106.3775523
8,尖顶坡,{1},{轨道交通1号线},29.60998412,106.2892466
9,歇台子,{1},{轨道交通1号线},29.53826703,106.4943948
10,马家岩,{1},{轨道交通1号线},29.54754411,106.4642708
11,陈家桥,{1},{轨道交通1号线},29.61009165,106.3246526
12,烈士墓,{1},{轨道交通1号线},29.57015272,106.4414921
13,大学城,{1},{轨道交通1号线},29.6099666,106.3049948
14,朝天门,{1},{轨道交通1号线},29.56693029,106.5823504
15,璧山,{1},{轨道交通1号线},29.61495379,106.228623
16,微电园,{1},{轨道交通1号线},29.61232841,106.3594831
17,高庙村,{1},{轨道交通1号线},29.53901029,106.465404
18,杨公桥,{1},{轨道交通1号线},29.56409229,106.4462372
19,较场口,"{1,2}","{轨道交通1号线,轨道交通2号线}",29.55611493,106.569285
20,大坪,"{1,2}","{轨道交通1号线,轨道交通2号线}",29.54390451,106.515188
21,两路口,"{1,4}","{轨道交通1号线,轨道交通3号线支线}",29.55547838,106.5452684
22,石桥铺,"{1,6}","{轨道交通1号线,轨道交通5号线南段}",29.53541239,106.4810154
23,小什字,"{1,9}","{轨道交通1号线,轨道交通6号线}",29.56272322,106.5797276
24,小龙坎,"{1,10}","{轨道交通1号线,轨道交通9号线}",29.55589339,106.4653287
25,沙坪坝,"{1,10,12}","{轨道交通1号线,轨道交通9号线,轨道交通环线}",29.55754213,106.4563629
26,佛图关,{2},{轨道交通2号线},29.55211216,106.5276239
27,平安,{2},{轨道交通2号线},29.49146182,106.4810142
28,曾家岩,{2},{轨道交通2号线},29.56930418,106.5460336
29,新山村,{2},{轨道交通2号线},29.47458355,106.4722457
30,建桥,{2},{轨道交通2号线},29.45250087,106.4708264
31,临江门,{2},{轨道交通2号线},29.56081871,106.5717959
32,马王场,{2},{轨道交通2号线},29.4988217,106.4848838
33,金家湾,{2},{轨道交通2号线},29.44083568,106.4715681
34,刘家坝,{2},{轨道交通2号线},29.43041531,106.4787039
35,动物园,{2},{轨道交通2号线},29.50285281,106.5054564
36,袁家岗,{2},{轨道交通2号线},29.53197653,106.5100375
37,白居寺,{2},{轨道交通2号线},29.41747134,106.4880495
38,大堰村,{2},{轨道交通2号线},29.50246005,106.4951068
39,大江,{2},{轨道交通2号线},29.38708919,106.4972348
40,大渡口,{2},{轨道交通2号线},29.4843258,106.4742643
41,大溪沟,{2},{轨道交通2号线},29.56895936,106.5548912
42,天堂堡,{2},{轨道交通2号线},29.46969212,106.4683299
43,黄花园,{2},{轨道交通2号线},29.56612648,106.5614679
44,杨家坪,{2},{轨道交通2号线},29.51057279,106.5100784
45,李子坝,{2},{轨道交通2号线},29.555646,106.5339614
46,牛角沱,"{2,4}","{轨道交通2号线,轨道交通3号线支线}",29.56260308,106.5389108
47,鱼洞,"{2,4}","{轨道交通2号线,轨道交通3号线支线}",29.37882617,106.5023118
48,谢家湾,"{2,12}","{轨道交通2号线,轨道交通环线}",29.52192817,106.5137218
49,观月路,{3},{轨道交通3号线},29.77768705,106.6488997
50,高堡湖,{3},{轨道交通3号线},29.7545534,106.6393091
51,空港广场,{3},{轨道交通3号线},29.73928547,106.63006
52,莲花,{3},{轨道交通3号线},29.78812914,106.6520619
53,举人坝,{3},{轨道交通3号线},29.79401578,106.6635907
54,双凤桥,{3},{轨道交通3号线},29.73178153,106.6288484
55,碧津,"{3,4}","{轨道交通3号线,轨道交通3号线支线}",29.7138553,106.6289117
56,八公里,{4},{轨道交通3号线支线},29.48111995,106.562262
57,金渝,{4},{轨道交通3号线支线},29.6382191,106.5669372
58,学堂湾,{4},{轨道交通3号线支线},29.40071164,106.5393421
59,龙头寺,{4},{轨道交通3号线支线},29.61947738,106.5459728
60,金童路,{4},{轨道交通3号线支线},29.64610815,106.5638045
61,金竹,{4},{轨道交通3号线支线},29.37847571,106.5201062
62,铜元局,{4},{轨道交通3号线支线},29.53879415,106.5478373
63,大山村,{4},{轨道交通3号线支线},29.41580106,106.5399374
64,工贸,{4},{轨道交通3号线支线},29.53458784,106.5591904
65,麒龙,{4},{轨道交通3号线支线},29.46978088,106.5589643
66,狮子坪,{4},{轨道交通3号线支线},29.60407901,106.54549
67,长福路,{4},{轨道交通3号线支线},29.69050021,106.5850532
68,鱼胡路,{4},{轨道交通3号线支线},29.38054614,106.5354053
69,鸳鸯,{4},{轨道交通3号线支线},29.66397321,106.5565127
70,南坪,{4},{轨道交通3号线支线},29.52893166,106.5661578
71,郑家院子,{4},{轨道交通3号线支线},29.60238972,106.5265479
72,童家院子,{4},{轨道交通3号线支线},29.6311295,106.5513089
73,重庆交通大学,{4},{轨道交通3号线支线},29.49159186,106.5691782
74,双龙,{4},{轨道交通3号线支线},29.70081826,106.6151723
75,重庆工商大学,{4},{轨道交通3号线支线},29.51026745,106.5701643
76,唐家院子,{4},{轨道交通3号线支线},29.60202467,106.536966
77,嘉州路,{4},{轨道交通3号线支线},29.59829125,106.5182878
78,回兴,{4},{轨道交通3号线支线},29.69335961,106.6022728
79,六公里,{4},{轨道交通3号线支线},29.50066605,106.569658
80,园博园,{4},{轨道交通3号线支线},29.67748102,106.5599945
81,九公里,{4},{轨道交通3号线支线},29.46148136,106.5554045
82,岔路口,{4},{轨道交通3号线支线},29.45138952,106.5507969
83,花溪,{4},{轨道交通3号线支线},29.43514082,106.5465344
84,翠云,{4},{轨道交通3号线支线},29.68876586,106.5690093
85,华新街,{4},{轨道交通3号线支线},29.5668383,106.5335055
86,红旗河沟,"{4,9}","{轨道交通3号线支线,轨道交通6号线}",29.58813392,106.5225026
87,观音桥,"{4,10}","{轨道交通3号线支线,轨道交通9号线}",29.5756607,106.5307839
88,江北机场T2航站楼,"{4,11}","{轨道交通3号线支线,轨道交通10号线}",29.72077113,106.6336286
89,重庆北站南广场,"{4,11,12}","{轨道交通3号线支线,轨道交通10号线,轨道交通环线}",29.60995346,106.546127
90,四公里,"{4,12}","{轨道交通3号线支线,轨道交通环线}",29.5199543,106.5731008
91,龙驿大道,{5},{轨道交通4号线},29.69238004,106.7900522
92,三板溪,{5},{轨道交通4号线},29.6704322,106.7937495
93,唐家沱,{5},{轨道交通4号线},29.6081576,106.6557014
94,复盛,{5},{轨道交通4号线},29.65881209,106.7964513
95,太平冲,{5},{轨道交通4号线},29.60835114,106.6380861
96,寸滩,{5},{轨道交通4号线},29.6246983,106.6025024
97,普福,{5},{轨道交通4号线},29.7312593,106.7998061
98,果园物流枢纽,{5},{轨道交通4号线},29.61248679,106.7350176
99,桐梓林,{5},{轨道交通4号线},29.74457594,106.8113333
100,石河清,{5},{轨道交通4号线},29.64114693,106.7958416
101,石船,{5},{轨道交通4号线},29.76238413,106.8297337
102,铁山坪,{5},{轨道交通4号线},29.61653934,106.6655547
103,雁坪,{5},{轨道交通4号线},29.62962398,106.7716295
104,高石塔,{5},{轨道交通4号线},29.71402914,106.7991877
105,鱼嘴,{5},{轨道交通4号线},29.62590233,106.7583721
106,鹿栖,{5},{轨道交通4号线},29.60328843,106.7125291
107,黄岭,{5},{轨道交通4号线},29.77469031,106.8375487
108,黑石子,{5},{轨道交通4号线},29.62749363,106.6175187
109,龙兴,{5},{轨道交通4号线},29.70442194,106.7980076
110,头塘,"{5,10}","{轨道交通4号线,轨道交通9号线}",29.61072108,106.5696224
111,保税港,"{5,10}","{轨道交通4号线,轨道交通9号线}",29.61947729,106.5799762
112,重庆北站北广场,"{5,11}","{轨道交通4号线,轨道交通10号线}",29.61543192,106.5472663
113,民安大道,"{5,12}","{轨道交通4号线,轨道交通环线}",29.61162414,106.5250151
114,华成路,{6},{轨道交通5号线南段},29.48295118,106.4495085
115,中梁山,{6},{轨道交通5号线南段},29.46198941,106.4420968
116,凤西路,{6},{轨道交通5号线南段},29.51627039,106.45008
117,半山,{6},{轨道交通5号线南段},29.47590329,106.4465676
118,华岩中心,{6},{轨道交通5号线南段},29.43178663,106.4364577
119,华岩寺,{6},{轨道交通5号线南段},29.49652874,106.4416478
120,跳磴,{6},{轨道交通5号线南段},29.41100156,106.433708
121,石新路,{6},{轨道交通5号线南段},29.52853873,106.4738609
122,金建路,{6},{轨道交通5号线南段},29.44529562,106.4381443
123,巴山,{6},{轨道交通5号线南段},29.5232542,106.4650986
124,重庆西站,"{6,12}","{轨道交通5号线南段,轨道交通环线}",29.50279034,106.4353656
125,重光,{7},{轨道交通5号线},29.65163243,106.526133
126,幸福广场,{7},{轨道交通5号线},29.61971516,106.5043972
127,湖霞街,{7},{轨道交通5号线},29.66250434,106.5348514
128,和睦路,{7},{轨道交通5号线},29.63256815,106.5296977
129,园博中心,{7},{轨道交通5号线},29.67827264,106.5569954
130,人和,{7},{轨道交通5号线},29.62603,106.5185559
131,丹鹤,{7},{轨道交通5号线},29.66966611,106.5472381
132,大石坝,{7},{轨道交通5号线},29.57343746,106.4912763
133,大龙山,"{7,9}","{轨道交通5号线,轨道交通6号线}",29.5926671,106.4948147
134,冉家坝,"{7,9,12}","{轨道交通5号线,轨道交通6号线,轨道交通环线}",29.60128437,106.4951143
135,红岩坪,{8},{国博线},29.83595814,106.5456205
136,欢乐谷,{8},{国博线},29.67171422,106.5046359
137,沙河坝,{8},{国博线},29.84707227,106.5528534
138,刘家院子,{8},{国博线},29.7848489,106.5507541
139,思源,{8},{国博线},29.80965383,106.5455342
140,复兴,{8},{国博线},29.82495615,106.5463754
141,清溪河,{8},{国博线},29.76671346,106.5442215
142,黄茅坪,{8},{国博线},29.67886768,106.5276013
143,国博中心,{8},{国博线},29.71967692,106.5416868
144,高义口,{8},{国博线},29.70533402,106.5241155
145,礼嘉,"{8,9}","{国博线,轨道交通6号线}",29.67031684,106.4846773
146,悦来,"{8,11}","{国博线,轨道交通10号线}",29.7288199,106.5441966
147,王家庄,"{8,11}","{国博线,轨道交通10号线}",29.74681677,106.5417407
148,龙凤溪,{9},{轨道交通6号线},29.79202532,106.3999034
149,大竹林,{9},{轨道交通6号线},29.63103977,106.4743447
150,状元碑,{9},{轨道交通6号线},29.80566633,106.3949018
151,大剧院,{9},{轨道交通6号线},29.57243566,106.5732717
152,黄泥Y,{9},{轨道交通6号线},29.5913088,106.5345112
153,向家岗,{9},{轨道交通6号线},29.74182642,106.4690729
154,花卉园,{9},{轨道交通6号线},29.58596624,106.5090431
155,茶园,{9},{轨道交通6号线},29.490611,106.6392117
156,蔡家,{9},{轨道交通6号线},29.73879955,106.4882831
157,西南大学,{9},{轨道交通6号线},29.81881713,106.4196771
158,北碚,{9},{轨道交通6号线},29.82796812,106.4336948
159,刘家坪,{9},{轨道交通6号线},29.52762197,106.6518707
160,邱家湾,{9},{轨道交通6号线},29.50067735,106.6457649
161,金山寺,{9},{轨道交通6号线},29.68227436,106.4882913
162,光电园,{9},{轨道交通6号线},29.61881556,106.4955692
163,长生桥,{9},{轨道交通6号线},29.51381624,106.6542909
164,九曲河,{9},{轨道交通6号线},29.65659454,106.478896
165,康庄,{9},{轨道交通6号线},29.63762556,106.4750793
166,曹家湾,{9},{轨道交通6号线},29.72381957,106.490586
167,江北城,"{9,10}","{轨道交通6号线,轨道交通9号线}",29.57881297,106.5683019
168,五里店,"{9,10,12}","{轨道交通6号线,轨道交通9号线,轨道交通环线}",29.5883765,106.5628687
169,红土地,"{9,11}","{轨道交通6号线,轨道交通10号线}",29.58695086,106.5472061
170,上新街,"{9,12}","{轨道交通6号线,轨道交通环线}",29.55907405,106.593297
171,刘家台,{10},{轨道交通9号线},29.57564324,106.559918
172,溉澜溪,{10},{轨道交通9号线},29.59714036,106.567814
173,土湾,{10},{轨道交通9号线},29.55395546,106.4765762
174,青岗坪,{10},{轨道交通9号线},29.66360007,106.6130235
175,兴科大道,{10},{轨道交通9号线},29.69050596,106.5996667
176,宝圣湖,{10},{轨道交通9号线},29.68080579,106.6058087
177,红岩村,{10},{轨道交通9号线},29.55284204,106.4888198
178,何家梁,{10},{轨道交通9号线},29.62793741,106.5923416
179,高滩岩,{10},{轨道交通9号线},29.54205096,106.4456369
180,天梨路,{10},{轨道交通9号线},29.55242388,106.446827
181,蚂蝗梁,{10},{轨道交通9号线},29.57277664,106.5215387
182,李家坪,{10},{轨道交通9号线},29.56655005,106.5172562
183,化龙桥,{10},{轨道交通9号线},29.55276217,106.5149538
184,富华路,{10},{轨道交通9号线},29.55372593,106.5000318
185,石盘河,{10},{轨道交通9号线},29.64124668,106.5934723
186,上湾路,"{10,11}","{轨道交通9号线,轨道交通10号线}",29.65287619,106.6055327
187,鲤鱼池,"{10,11}","{轨道交通9号线,轨道交通10号线}",29.57620546,106.5471919
188,民心佳园,{11},{轨道交通10号线},29.62954459,106.5639081
189,渝北广场,{11},{轨道交通10号线},29.72168396,106.6264534
190,龙头寺公园,{11},{轨道交通10号线},29.60147134,106.5470774
191,三亚湾,{11},{轨道交通10号线},29.64127916,106.5813056
192,江北机场T3航站楼,{11},{轨道交通10号线},29.71099273,106.6517045
193,中央公园西,{11},{轨道交通10号线},29.72655833,106.568671
194,中央公园东,{11},{轨道交通10号线},29.72652625,106.5883182
195,中央公园,{11},{轨道交通10号线},29.72653065,106.5798746
196,环山公园,{11},{轨道交通10号线},29.66170722,106.6184014
197,鹿山,{11},{轨道交通10号线},29.72334578,106.604642
198,长河,{11},{轨道交通10号线},29.67705854,106.6258513
199,南桥寺,{12},{轨道交通环线},29.59369342,106.4785384
200,奥体中心,{12},{轨道交通环线},29.52628372,106.4986473
201,凤鸣山,{12},{轨道交通环线},29.52705136,106.4453727
202,玉带山,{12},{轨道交通环线},29.58319046,106.4721205
203,重庆图书馆,{12},{轨道交通环线},29.5346591,106.4515756
204,重庆大学,{12},{轨道交通环线},29.57096449,106.4595368
205,渝鲁,{12},{轨道交通环线},29.59844821,106.5561004
206,涂山,{12},{轨道交通环线},29.57881173,106.5969604
207,上桥,{12},{轨道交通环线},29.52069701,106.438676
208,体育公园,{12},{轨道交通环线},29.60139037,106.4836375
209,仁济,{12},{轨道交通环线},29.56807022,106.5962112
210,陈家坪,{12},{轨道交通环线},29.5263381,106.4849402
211,海棠溪,{12},{轨道交通环线},29.53756308,106.5832777
212,海峡路,{12},{轨道交通环线},29.52131221,106.5425327
213,二郎,{12},{轨道交通环线},29.50709333,106.4581982
214,洪湖东路,{12},{轨道交通环线},29.61044808,106.5086574
215,天星桥,{12},{轨道交通环线},29.54424926,106.4549202
216,华龙,{12},{轨道交通环线},29.49826176,106.4491183
217,罗家坝,{12},{轨道交通环线},29.5291244,106.5791076
218,彩云湖,{12},{轨道交通环线},29.51850411,106.4676635
219,弹子石,{12},{轨道交通环线},29.58897643,106.5890336
220,动步公园,{12},{轨道交通环线},29.60680612,106.5015772
221,南湖,{12},{轨道交通环线},29.51973668,106.5532871
